{
    "resultValues": [
        {
            "line": 27,
            "secDetail": 10,
            "orderDetail": "1",
            "node": 86,
            "distance": 0,
            "distancePreviousStop": 0,
            "name": "Embajadores",
            "latitude": 40.405337104556,
            "longitude": -3.7024238246193,
            "stopTimes": []
        },
        {
            "line": 27,
            "secDetail": 10,
            "orderDetail": "1",
            "node": 85,
            "distance": 471,
            "distancePreviousStop": 471,
            "name": "Teatro Circo Price",
            "latitude": 40.405890051416,
            "longitude": -3.6988893819997,
            "stopTimes": []
        },
        {
            "line": 27,
            "secDetail": 10,
            "orderDetail": "1",
            "node": 87,
            "distance": 794,
            "distancePreviousStop": 323,
            "name": "Jos\u00e9 Antonio Armona",
            "latitude": 40.404380470211,
            "longitude": -3.6967466364587,
            "stopTimes": []
        },
        {
            "line": 27,
            "secDetail": 10,
            "orderDetail": "1",
            "node": 88,
            "distance": 1028,
            "distancePreviousStop": 234,
            "name": "Calle de las Delicias",
            "latitude": 40.404100087833,
            "longitude": -3.6939342934448,
            "stopTimes": []
        },
        {
            "line": 27,
            "secDetail": 10,
            "orderDetail": "1",
            "node": 89,
            "distance": 1327,
            "distancePreviousStop": 299,
            "name": "Delicias-Atocha",
            "latitude": 40.406564124667,
            "longitude": -3.6931688236157,
            "stopTimes": []
        },
        {
            "line": 27,
            "secDetail": 10,
            "orderDetail": "1",
            "node": 82,
            "distance": 1764,
            "distancePreviousStop": 437,
            "name": "Prado-Atocha",
            "latitude": 40.409966391135,
            "longitude": -3.6921854524354,
            "stopTimes": []
        },
        {
            "line": 27,
            "secDetail": 10,
            "orderDetail": "1",
            "node": 5511,
            "distance": 2106,
            "distancePreviousStop": 342,
            "name": "Museo del Prado",
            "latitude": 40.412989512767,
            "longitude": -3.6928340247899,
            "stopTimes": []
        },
        {
            "line": 27,
            "secDetail": 10,
            "orderDetail": "1",
            "node": 78,
            "distance": 2396,
            "distancePreviousStop": 290,
            "name": "Neptuno",
            "latitude": 40.415545422538,
            "longitude": -3.693272773093,
            "stopTimes": []
        },
        {
            "line": 27,
            "secDetail": 10,
            "orderDetail": "1",
            "node": 5443,
            "distance": 2759,
            "distancePreviousStop": 363,
            "name": "Cibeles",
            "latitude": 40.418565421775,
            "longitude": -3.6929383718293,
            "stopTimes": []
        },
        {
            "line": 27,
            "secDetail": 10,
            "orderDetail": "1",
            "node": 72,
            "distance": 2968,
            "distancePreviousStop": 209,
            "name": "Cibeles",
            "latitude": 40.420263812809,
            "longitude": -3.6921518954624,
            "stopTimes": []
        },
        {
            "line": 27,
            "secDetail": 10,
            "orderDetail": "1",
            "node": 65,
            "distance": 3383,
            "distancePreviousStop": 415,
            "name": "Biblioteca Nacional",
            "latitude": 40.423787005419,
            "longitude": -3.6905282512026,
            "stopTimes": []
        },
        {
            "line": 27,
            "secDetail": 10,
            "orderDetail": "1",
            "node": 66,
            "distance": 3639,
            "distancePreviousStop": 256,
            "name": "Col\u00f3n",
            "latitude": 40.426034088731,
            "longitude": -3.6898816486698,
            "stopTimes": []
        },
        {
            "line": 27,
            "secDetail": 10,
            "orderDetail": "1",
            "node": 62,
            "distance": 4014,
            "distancePreviousStop": 375,
            "name": "Castellana-Ministerio Interior",
            "latitude": 40.429164972366,
            "longitude": -3.6890789811533,
            "stopTimes": []
        },
        {
            "line": 27,
            "secDetail": 10,
            "orderDetail": "1",
            "node": 60,
            "distance": 4461,
            "distancePreviousStop": 447,
            "name": "Castellana-Rub\u00e9n Dario",
            "latitude": 40.43315284451,
            "longitude": -3.6880833757818,
            "stopTimes": []
        },
        {
            "line": 27,
            "secDetail": 10,
            "orderDetail": "1",
            "node": 5333,
            "distance": 4756,
            "distancePreviousStop": 295,
            "name": "Emilio Castelar",
            "latitude": 40.435735781925,
            "longitude": -3.6885235409517,
            "stopTimes": []
        },
        {
            "line": 27,
            "secDetail": 10,
            "orderDetail": "1",
            "node": 56,
            "distance": 5091,
            "distancePreviousStop": 335,
            "name": "Gregorio Mara\u00f1\u00f3n",
            "latitude": 40.438301091235,
            "longitude": -3.6904079081039,
            "stopTimes": []
        },
        {
            "line": 27,
            "secDetail": 10,
            "orderDetail": "1",
            "node": 54,
            "distance": 5412,
            "distancePreviousStop": 321,
            "name": "Museo Ciencias Naturales",
            "latitude": 40.441070041002,
            "longitude": -3.6913771637189,
            "stopTimes": []
        },
        {
            "line": 27,
            "secDetail": 10,
            "orderDetail": "1",
            "node": 52,
            "distance": 5703,
            "distancePreviousStop": 291,
            "name": "Nuevos Ministerios-Castellana",
            "latitude": 40.443683942737,
            "longitude": -3.691156323728,
            "stopTimes": []
        },
        {
            "line": 27,
            "secDetail": 10,
            "orderDetail": "1",
            "node": 50,
            "distance": 6084,
            "distancePreviousStop": 381,
            "name": "Nuevos Ministerios-Centro Comercial",
            "latitude": 40.446774841132,
            "longitude": -3.6910146429227,
            "stopTimes": []
        },
        {
            "line": 27,
            "secDetail": 10,
            "orderDetail": "1",
            "node": 47,
            "distance": 6364,
            "distancePreviousStop": 280,
            "name": "AZCA",
            "latitude": 40.449289894789,
            "longitude": -3.6907514874134,
            "stopTimes": []
        },
        {
            "line": 27,
            "secDetail": 10,
            "orderDetail": "1",
            "node": 42,
            "distance": 6602,
            "distancePreviousStop": 238,
            "name": "Lima-Santiago Bernab\u00e9u",
            "latitude": 40.451426343232,
            "longitude": -3.6905268925941,
            "stopTimes": []
        },
        {
            "line": 27,
            "secDetail": 10,
            "orderDetail": "1",
            "node": 44,
            "distance": 6780,
            "distancePreviousStop": 178,
            "name": "Santiago Bernab\u00e9u",
            "latitude": 40.453030827038,
            "longitude": -3.6903758546647,
            "stopTimes": []
        },
        {
            "line": 27,
            "secDetail": 10,
            "orderDetail": "1",
            "node": 39,
            "distance": 6944,
            "distancePreviousStop": 164,
            "name": "Castellana-Rafael Salgado",
            "latitude": 40.454491078372,
            "longitude": -3.6902398449231,
            "stopTimes": []
        },
        {
            "line": 27,
            "secDetail": 10,
            "orderDetail": "1",
            "node": 37,
            "distance": 7075,
            "distancePreviousStop": 131,
            "name": "P\u00ba CASTELLANA-GRAL.YAGUE",
            "latitude": 40.455671944268,
            "longitude": -3.6901221996482,
            "stopTimes": []
        },
        {
            "line": 27,
            "secDetail": 10,
            "orderDetail": "1",
            "node": 35,
            "distance": 7534,
            "distancePreviousStop": 459,
            "name": "Cuzco",
            "latitude": 40.459800355582,
            "longitude": -3.6897292347616,
            "stopTimes": []
        },
        {
            "line": 27,
            "secDetail": 10,
            "orderDetail": "1",
            "node": 33,
            "distance": 7752,
            "distancePreviousStop": 218,
            "name": "Castellana-Rosario Pino",
            "latitude": 40.461756393088,
            "longitude": -3.6895428344984,
            "stopTimes": []
        },
        {
            "line": 27,
            "secDetail": 10,
            "orderDetail": "1",
            "node": 29,
            "distance": 8118,
            "distancePreviousStop": 366,
            "name": "Juzgados Plaza de Castilla",
            "latitude": 40.465028635893,
            "longitude": -3.6892035678599,
            "stopTimes": []
        },
        {
            "line": 27,
            "secDetail": 10,
            "orderDetail": "1",
            "node": 5602,
            "distance": 8317,
            "distancePreviousStop": 199,
            "name": "Plaza Castilla",
            "latitude": 40.466631680035,
            "longitude": -3.6892930868769,
            "stopTimes": []
        },
        {
            "line": 27,
            "secDetail": 20,
            "orderDetail": "1",
            "node": 28,
            "distance": 218,
            "distancePreviousStop": 218,
            "name": "Juzgados Plaza Castilla",
            "latitude": 40.464962404622,
            "longitude": -3.6897348565481,
            "stopTimes": []
        },
        {
            "line": 27,
            "secDetail": 20,
            "orderDetail": "1",
            "node": 32,
            "distance": 572,
            "distancePreviousStop": 354,
            "name": "Castellana-Rosario Pino",
            "latitude": 40.461780687221,
            "longitude": -3.6900007169473,
            "stopTimes": []
        },
        {
            "line": 27,
            "secDetail": 20,
            "orderDetail": "1",
            "node": 34,
            "distance": 967,
            "distancePreviousStop": 395,
            "name": "Cuzco",
            "latitude": 40.458229246005,
            "longitude": -3.690326458192,
            "stopTimes": []
        },
        {
            "line": 27,
            "secDetail": 20,
            "orderDetail": "1",
            "node": 36,
            "distance": 1158,
            "distancePreviousStop": 191,
            "name": "P\u00ba CASTELLANA-GRAL.YAGUE",
            "latitude": 40.456516557986,
            "longitude": -3.6904940900788,
            "stopTimes": []
        },
        {
            "line": 27,
            "secDetail": 20,
            "orderDetail": "1",
            "node": 38,
            "distance": 1383,
            "distancePreviousStop": 225,
            "name": "Castellana-Rafael Salgado",
            "latitude": 40.454497290097,
            "longitude": -3.6907081071539,
            "stopTimes": []
        },
        {
            "line": 27,
            "secDetail": 20,
            "orderDetail": "1",
            "node": 41,
            "distance": 1727,
            "distancePreviousStop": 344,
            "name": "Lima-Santiago Bernab\u00e9u",
            "latitude": 40.451414072027,
            "longitude": -3.6910727772308,
            "stopTimes": []
        },
        {
            "line": 27,
            "secDetail": 20,
            "orderDetail": "1",
            "node": 46,
            "distance": 1958,
            "distancePreviousStop": 231,
            "name": "AZCA",
            "latitude": 40.449332201556,
            "longitude": -3.6912094701358,
            "stopTimes": []
        },
        {
            "line": 27,
            "secDetail": 20,
            "orderDetail": "1",
            "node": 48,
            "distance": 2285,
            "distancePreviousStop": 327,
            "name": "Nuevos Ministerios-Centro Comercial",
            "latitude": 40.446510644744,
            "longitude": -3.6915060226941,
            "stopTimes": []
        },
        {
            "line": 27,
            "secDetail": 20,
            "orderDetail": "1",
            "node": 49,
            "distance": 2422,
            "distancePreviousStop": 137,
            "name": "Nuevos Ministerios-Cercan\u00edas",
            "latitude": 40.445311279473,
            "longitude": -3.691703624733,
            "stopTimes": []
        },
        {
            "line": 27,
            "secDetail": 20,
            "orderDetail": "1",
            "node": 51,
            "distance": 2568,
            "distancePreviousStop": 146,
            "name": "Nuevos Ministerios-Castellana",
            "latitude": 40.443995214501,
            "longitude": -3.6918316322215,
            "stopTimes": []
        },
        {
            "line": 27,
            "secDetail": 20,
            "orderDetail": "1",
            "node": 53,
            "distance": 2910,
            "distancePreviousStop": 342,
            "name": "Museo Ciencias Naturales",
            "latitude": 40.440929976673,
            "longitude": -3.6922011018695,
            "stopTimes": []
        },
        {
            "line": 27,
            "secDetail": 20,
            "orderDetail": "1",
            "node": 4337,
            "distance": 3199,
            "distancePreviousStop": 289,
            "name": "Gregorio Mara\u00f1\u00f3n",
            "latitude": 40.438449343669,
            "longitude": -3.6912276931969,
            "stopTimes": []
        },
        {
            "line": 27,
            "secDetail": 20,
            "orderDetail": "1",
            "node": 57,
            "distance": 3648,
            "distancePreviousStop": 449,
            "name": "Emilio Castelar",
            "latitude": 40.434920525794,
            "longitude": -3.689270963356,
            "stopTimes": []
        },
        {
            "line": 27,
            "secDetail": 20,
            "orderDetail": "1",
            "node": 59,
            "distance": 3873,
            "distancePreviousStop": 225,
            "name": "Castellana-Rub\u00e9n Dar\u00edo",
            "latitude": 40.432923247392,
            "longitude": -3.6888178883276,
            "stopTimes": []
        },
        {
            "line": 27,
            "secDetail": 20,
            "orderDetail": "1",
            "node": 61,
            "distance": 4311,
            "distancePreviousStop": 438,
            "name": "Castellana-Ministerio Interior",
            "latitude": 40.429079559378,
            "longitude": -3.6898054891506,
            "stopTimes": []
        },
        {
            "line": 27,
            "secDetail": 20,
            "orderDetail": "1",
            "node": 63,
            "distance": 4682,
            "distancePreviousStop": 371,
            "name": "Col\u00f3n",
            "latitude": 40.425813390387,
            "longitude": -3.6906326727298,
            "stopTimes": []
        },
        {
            "line": 27,
            "secDetail": 20,
            "orderDetail": "1",
            "node": 5626,
            "distance": 4907,
            "distancePreviousStop": 225,
            "name": "Biblioteca Nacional",
            "latitude": 40.424045558027,
            "longitude": -3.6909812005776,
            "stopTimes": []
        },
        {
            "line": 27,
            "secDetail": 20,
            "orderDetail": "1",
            "node": 68,
            "distance": 5053,
            "distancePreviousStop": 146,
            "name": "Recoletos",
            "latitude": 40.422799068204,
            "longitude": -3.6915260119331,
            "stopTimes": []
        },
        {
            "line": 27,
            "secDetail": 20,
            "orderDetail": "1",
            "node": 73,
            "distance": 5368,
            "distancePreviousStop": 315,
            "name": "Cibeles",
            "latitude": 40.420142736182,
            "longitude": -3.6928131071937,
            "stopTimes": []
        },
        {
            "line": 27,
            "secDetail": 20,
            "orderDetail": "1",
            "node": 76,
            "distance": 5671,
            "distancePreviousStop": 303,
            "name": "Banco de Espa\u00f1a",
            "latitude": 40.417728731162,
            "longitude": -3.6942499304637,
            "stopTimes": []
        },
        {
            "line": 27,
            "secDetail": 20,
            "orderDetail": "1",
            "node": 77,
            "distance": 5975,
            "distancePreviousStop": 304,
            "name": "Neptuno",
            "latitude": 40.415032569818,
            "longitude": -3.6946642119763,
            "stopTimes": []
        },
        {
            "line": 27,
            "secDetail": 20,
            "orderDetail": "1",
            "node": 79,
            "distance": 6298,
            "distancePreviousStop": 323,
            "name": "Museo del Prado",
            "latitude": 40.412274196989,
            "longitude": -3.6934360264326,
            "stopTimes": []
        },
        {
            "line": 27,
            "secDetail": 20,
            "orderDetail": "1",
            "node": 81,
            "distance": 6578,
            "distancePreviousStop": 280,
            "name": "Prado-Atocha",
            "latitude": 40.409828569136,
            "longitude": -3.6926342507736,
            "stopTimes": []
        },
        {
            "line": 27,
            "secDetail": 20,
            "orderDetail": "1",
            "node": 83,
            "distance": 6859,
            "distancePreviousStop": 281,
            "name": "Reina Sof\u00eda",
            "latitude": 40.407678650274,
            "longitude": -3.6935998127116,
            "stopTimes": []
        },
        {
            "line": 27,
            "secDetail": 20,
            "orderDetail": "1",
            "node": 84,
            "distance": 7333,
            "distancePreviousStop": 474,
            "name": "Teatro Circo Price",
            "latitude": 40.406197020475,
            "longitude": -3.6987794214487,
            "stopTimes": []
        }
    ]
}
